City_ID,City,Country,Date,Lat,Lng,Max Temp,Humidity,Cloudiness,Wind Speed
0,Lompoc,US,2022-12-22 22:31:20,34.6391,-120.4579,70.84,59,75,4.61
1,Thompson,CA,2022-12-22 22:33:21,55.7435,-97.8558,-7.44,71,75,11.5
2,Barrow,US,2022-12-22 22:33:22,71.2906,-156.7887,14.02,85,100,21.85
3,Tasiilaq,GL,2022-12-22 22:33:23,65.6145,-37.6368,15.96,68,2,6.24
4,Albany,US,2022-12-22 22:30:31,42.6001,-73.9662,34.59,89,100,3.0
5,Jamestown,US,2022-12-22 22:29:08,42.097,-79.2353,40.59,75,100,6.91
6,Malartic,CA,2022-12-22 22:30:24,48.1335,-78.1328,21.31,91,100,10.47
7,Berbera,SO,2022-12-22 22:30:17,10.4396,45.0143,74.66,84,29,5.35
8,Mar Del Plata,AR,2022-12-22 22:33:32,-38.0023,-57.5575,74.82,88,81,32.99
9,Orangeburg,US,2022-12-22 22:33:32,33.4918,-80.8557,46.94,92,85,4.0
10,Saint-Orens-De-Gameville,FR,2022-12-22 22:33:33,43.554,1.5341,59.23,82,0,6.91
11,Gat,IL,2022-12-22 22:32:04,31.61,34.7642,59.77,100,23,5.61
12,Dikson,RU,2022-12-22 22:33:35,73.5069,80.5464,-9.78,95,100,13.98
13,Valparaiso,CL,2022-12-22 22:33:35,-33.0393,-71.6273,80.24,53,0,13.8
14,Saint-Philippe,RE,2022-12-22 22:33:36,-21.3585,55.7679,74.79,80,88,13.02
15,Lebu,CL,2022-12-22 22:33:36,-37.6167,-73.65,60.01,71,75,12.41
16,Iqaluit,CA,2022-12-22 22:30:13,63.7506,-68.5145,6.53,84,100,2.3
17,Cape Town,ZA,2022-12-22 22:33:08,-33.9258,18.4232,67.12,76,0,13.8
18,Leningradskiy,RU,2022-12-22 22:29:18,69.3833,178.4167,4.95,69,0,2.77
19,Vaini,TO,2022-12-22 22:33:37,-21.2,-175.2,86.16,74,40,9.22
20,Fairbanks,US,2022-12-22 22:33:08,64.8378,-147.7164,-14.4,72,0,0.0
21,Victoria,HK,2022-12-22 22:30:29,22.2855,114.1577,62.26,39,7,15.99
22,Bambous Virieux,MU,2022-12-22 22:33:38,-20.3428,57.7575,74.21,83,20,6.91
23,Caravelas,BR,2022-12-22 22:33:38,-17.7125,-39.2481,73.08,95,100,9.84
24,Gorontalo,ID,2022-12-22 22:33:39,0.5412,123.0595,78.31,91,97,1.54
25,Puerto Ayora,EC,2022-12-22 22:33:39,-0.7393,-90.3518,78.76,94,53,1.01
26,East London,ZA,2022-12-22 22:33:39,-33.0153,27.9116,71.87,66,1,12.37
27,New Norfolk,AU,2022-12-22 22:33:40,-42.7826,147.0587,64.92,73,68,0.94
28,Georgetown,MY,2022-12-22 22:33:40,5.4112,100.3354,78.89,92,20,5.75
29,Zhigansk,RU,2022-12-22 22:33:42,66.7697,123.3711,-35.09,98,74,3.65
30,Salalah,OM,2022-12-22 22:33:42,17.0151,54.0924,73.49,88,75,4.61
31,Ucluelet,CA,2022-12-22 22:33:42,48.9329,-125.5528,33.1,57,100,14.16
32,Tiksi,RU,2022-12-22 22:33:43,71.6872,128.8694,-14.22,94,76,5.57
33,Jiuquan,CN,2022-12-22 22:33:43,39.7432,98.5174,17.26,57,6,4.09
34,Ushuaia,AR,2022-12-22 22:33:43,-54.8,-68.3,65.82,72,40,5.75
35,Binga,ZW,2022-12-22 22:33:44,-17.6203,27.3414,74.93,63,100,5.08
36,Tres Arroyos,AR,2022-12-22 22:31:59,-38.3739,-60.2798,89.17,22,100,7.16
37,Matamoros,MX,2022-12-22 22:29:29,25.5333,-103.25,78.91,16,0,0.0
38,Rikitea,PF,2022-12-22 22:33:44,-23.1203,-134.9692,78.3,67,12,4.32
39,Bluff,NZ,2022-12-22 22:33:45,-46.6,168.3333,59.07,80,64,9.1
40,Gander,CA,2022-12-22 22:33:45,48.9682,-54.5906,24.93,85,40,6.91
41,Asau,RO,2022-12-22 22:33:45,46.4333,26.4,25.72,86,100,6.55
42,Atuona,PF,2022-12-22 22:33:46,-9.8,-139.0333,78.87,79,11,15.05
43,Codajas,BR,2022-12-22 22:33:46,-3.8367,-62.0569,75.94,90,71,3.83
44,Ribeira Grande,PT,2022-12-22 22:33:47,38.5167,-28.7,57.78,81,100,8.01
45,Kruisfontein,ZA,2022-12-22 22:33:47,-34.0033,24.7314,66.2,74,23,9.08
46,Chokurdakh,RU,2022-12-22 22:33:48,70.6333,147.9167,-14.35,99,6,1.86
47,Marzuq,YE,2022-12-22 22:34:48,14.4,46.4667,59.95,68,2,3.24
48,Punta Arenas,CL,2022-12-22 22:34:48,-53.15,-70.9167,53.71,66,75,34.52
49,North Bend,US,2022-12-22 22:34:49,43.4065,-124.2243,51.24,94,100,8.05
50,Kroya,ID,2022-12-22 22:34:49,-7.6331,109.2461,76.41,86,99,8.3
51,Gimli,CA,2022-12-22 22:34:50,50.6336,-96.9907,-3.98,71,100,12.66
52,Korla,CN,2022-12-22 22:34:51,41.7597,86.1469,21.7,41,3,2.42
53,Pouembout,NC,2022-12-22 22:34:51,-21.1333,164.9,84.76,66,8,1.74
54,Yuli,NG,2022-12-22 22:34:52,9.6989,10.2744,66.33,31,65,6.64
55,Port Alfred,ZA,2022-12-22 22:34:53,-33.5906,26.891,70.18,80,1,5.99
56,Abbeville,FR,2022-12-22 22:32:30,50.1,1.8333,54.25,93,99,15.9
57,Yulara,AU,2022-12-22 22:34:53,-25.2406,130.9889,69.76,79,100,12.37
58,Constitucion,CL,2022-12-22 22:34:54,-35.3333,-72.4167,61.72,71,94,16.04
59,Padang,ID,2022-12-22 22:30:00,-0.9492,100.3543,77.32,81,100,3.4
60,Tuktoyaktuk,CA,2022-12-22 22:32:46,69.4541,-133.0374,-7.6,77,100,12.66
61,Kavieng,PG,2022-12-22 22:34:54,-2.5744,150.7967,83.01,78,61,10.13
62,Butaritari,KI,2022-12-22 22:34:55,3.0707,172.7902,81.45,78,95,20.0
63,Arraial Do Cabo,BR,2022-12-22 22:34:37,-22.9661,-42.0278,73.36,83,75,9.22
64,Omboue,GA,2022-12-22 22:34:55,-1.5746,9.2618,77.43,86,100,6.76
65,Faanui,PF,2022-12-22 22:34:56,-16.4833,-151.75,80.62,78,97,15.43
66,Provideniya,RU,2022-12-22 22:34:56,64.3833,-173.3,26.71,54,0,40.26
67,Kodiak,US,2022-12-22 22:33:37,57.79,-152.4072,36.91,87,100,36.82
68,Liverpool,GB,2022-12-22 22:33:09,53.4106,-2.9779,44.53,98,75,3.44
69,Nouakchott,MR,2022-12-22 22:34:58,18.0858,-15.9785,69.73,30,0,13.56
70,Fortuna,US,2022-12-22 22:34:58,40.5982,-124.1573,58.93,89,100,13.8
71,Quatre Cocos,MU,2022-12-22 22:34:58,-20.2078,57.7625,74.08,75,100,8.34
72,Hobart,AU,2022-12-22 22:30:20,-42.8794,147.3294,65.26,77,75,4.61
73,Bethal,ZA,2022-12-22 22:34:59,-26.4579,29.4655,57.52,77,1,4.76
74,Hermanus,ZA,2022-12-22 22:34:59,-34.4187,19.2345,61.81,85,93,1.19
75,Dom Pedro,BR,2022-12-22 22:35:00,-4.4833,-44.45,74.19,95,97,3.6
76,Mataura,NZ,2022-12-22 22:35:00,-46.1927,168.8643,62.92,83,95,4.68
77,Usinsk,RU,2022-12-22 22:35:00,65.9939,57.5281,3.06,96,93,10.47
78,Busselton,AU,2022-12-22 22:35:01,-33.65,115.3333,67.62,61,92,11.18
79,Port Hardy,CA,2022-12-22 22:30:33,50.6996,-127.4199,24.98,86,100,29.93
80,Avarua,CK,2022-12-22 22:35:02,-21.2078,-159.775,84.25,79,75,13.8
81,Kapaa,US,2022-12-22 22:35:03,22.0752,-159.319,80.92,71,20,17.27
82,Hay River,CA,2022-12-22 22:35:04,60.8156,-115.7999,-29.22,68,40,3.44
83,Narsaq,GL,2022-12-22 22:35:05,60.9167,-46.05,10.62,63,0,9.19
84,Dingle,PH,2022-12-22 22:35:05,10.9995,122.6711,76.24,94,91,9.55
85,Airai,TL,2022-12-22 22:35:07,-8.9266,125.4092,64.47,76,69,2.19
86,Sao Joao Da Barra,BR,2022-12-22 22:35:08,-21.6403,-41.0511,73.49,86,37,11.03
87,Kaitangata,NZ,2022-12-22 22:35:08,-46.2817,169.8464,63.18,70,100,4.92
88,Castro,BR,2022-12-22 22:35:09,-24.7911,-50.0119,57.78,91,38,7.67
89,Tezu,IN,2022-12-22 22:35:10,27.9167,96.1667,60.91,53,83,2.84
90,Athens,GR,2022-12-22 22:33:57,37.9795,23.7162,54.16,82,40,1.99
91,Esperance,AU,2022-12-22 22:36:10,-33.8667,121.9,64.29,64,34,6.71
92,Namibe,AO,2022-12-22 22:36:11,-15.1961,12.1522,67.82,77,79,8.37
93,Kavaratti,IN,2022-12-22 22:36:12,10.5669,72.642,81.19,62,85,8.46
94,Chuy,UY,2022-12-22 22:36:12,-33.6971,-53.4616,67.95,72,4,15.21
95,Longyearbyen,SJ,2022-12-22 22:36:13,78.2186,15.6401,19.24,68,75,23.02
96,Sao Joaquim,BR,2022-12-22 22:36:14,-28.2939,-49.9317,54.75,90,91,3.83
97,Praia Da Vitoria,PT,2022-12-22 22:36:14,38.7333,-27.0667,59.76,77,40,15.41
98,Redcliffe,AU,2022-12-22 22:36:14,-27.2307,153.0973,80.22,57,40,9.22
99,Port Elizabeth,ZA,2022-12-22 22:36:15,-33.918,25.5701,70.09,90,0,13.8
100,Khatanga,RU,2022-12-22 22:36:15,71.9667,102.5,-17.1,93,100,1.66
101,Chicama,PE,2022-12-22 22:36:16,-7.8447,-79.1469,68.54,73,47,8.41
102,Saint George,US,2022-12-22 22:36:16,37.1041,-113.5841,56.62,34,0,1.99
103,Mbuji-Mayi,CD,2022-12-22 22:36:17,-6.15,23.6,67.69,95,100,3.44
104,San Ramon,US,2022-12-22 22:34:29,37.7799,-121.978,59.41,71,0,9.22
105,Nemuro,JP,2022-12-22 22:36:17,43.3236,145.575,38.88,91,100,28.14
106,Te Anau,NZ,2022-12-22 22:36:18,-45.4167,167.7167,68.43,50,61,1.88
107,Barinas,VE,2022-12-22 22:36:18,8.6226,-70.2075,89.64,45,5,6.91
108,Ilulissat,GL,2022-12-22 22:36:19,69.2167,-51.1,6.82,51,40,2.3
109,Aklavik,CA,2022-12-22 22:36:19,68.2191,-135.0107,5.0,78,100,16.11
110,Antalaha,MG,2022-12-22 22:36:19,-14.9003,50.2788,75.02,93,100,2.15
111,Isugod,PH,2022-12-22 22:36:20,9.3408,118.1196,78.15,87,89,10.85
112,Port Blair,IN,2022-12-22 22:36:20,11.6667,92.75,80.64,78,40,2.3
113,Ponta Do Sol,PT,2022-12-22 22:36:21,32.6667,-17.1,66.83,85,27,3.58
114,Yar-Sale,RU,2022-12-22 22:36:21,66.8333,70.8333,-7.22,97,33,8.63
115,Sitka,US,2022-12-22 22:34:15,57.0531,-135.33,33.69,27,100,18.41
116,Balabac,PH,2022-12-22 22:36:22,7.9868,117.0645,80.38,75,65,17.4
117,Kamenka,RU,2022-12-22 22:36:22,51.3223,42.7678,32.22,84,100,10.58
118,Hamilton,US,2022-12-22 22:34:05,39.1834,-84.5333,45.99,94,100,11.5
119,Berlevag,NO,2022-12-22 22:36:24,70.8578,29.0864,26.6,74,75,6.91
120,Guerrero Negro,MX,2022-12-22 22:36:25,27.9769,-114.0611,70.14,26,0,8.55
121,Muisne,EC,2022-12-22 22:36:25,0.6,-80.0333,75.97,82,81,9.04
122,Hobyo,SO,2022-12-22 22:36:26,5.3505,48.5268,77.61,76,96,16.08
123,Purranque,CL,2022-12-22 22:36:26,-40.9167,-73.1667,65.28,45,50,5.95
124,Hilo,US,2022-12-22 22:35:58,19.7297,-155.09,82.13,73,0,6.91
125,Puerto Carreno,CO,2022-12-22 22:36:27,6.189,-67.4859,89.58,48,40,9.22
126,Bethel,US,2022-12-22 22:32:41,41.3712,-73.414,40.77,84,100,10.36
127,Laela,TZ,2022-12-22 22:36:30,-8.5667,32.05,61.05,93,100,3.04
128,Namatanai,PG,2022-12-22 22:36:30,-3.6667,152.4333,83.84,68,87,4.41
129,Santiago,CL,2022-12-22 22:31:42,-33.4569,-70.6483,83.55,32,0,18.41
130,Axim,GH,2022-12-22 22:36:31,4.8699,-2.2405,79.23,82,68,7.67
131,Bonthe,SL,2022-12-22 22:36:31,7.5264,-12.505,78.98,75,79,6.22
132,Tomatlan,MX,2022-12-22 22:36:31,19.9333,-105.25,85.26,39,0,7.45
133,Kyren,RU,2022-12-22 22:36:32,51.6828,102.1408,9.88,93,94,0.89
134,Baiyin,CN,2022-12-22 22:36:32,36.5583,104.2081,23.16,38,0,4.5
135,Kishi,NG,2022-12-22 22:37:33,9.0833,3.85,72.73,25,58,5.61
136,Katsuura,JP,2022-12-22 22:37:33,35.1333,140.3,41.14,52,10,35.99
137,Grand Gaube,MU,2022-12-22 22:37:33,-20.0064,57.6608,74.37,71,100,1.01
138,Waipawa,NZ,2022-12-22 22:37:34,-41.4122,175.5153,64.11,74,71,1.88
139,Ust-Tsilma,RU,2022-12-22 22:37:34,65.441,52.1498,11.57,96,98,4.23
140,Cartagena,CO,2022-12-22 22:37:35,10.3997,-75.5144,85.62,70,20,13.8
141,Yellowknife,CA,2022-12-22 22:34:19,62.456,-114.3525,-33.45,67,40,2.3
142,Morris,US,2022-12-22 22:37:35,40.8334,-74.5329,43.21,90,100,8.01
143,Brae,GB,2022-12-22 22:37:36,60.3964,-1.353,38.88,55,86,16.73
144,Kilinochchi,LK,2022-12-22 22:37:36,9.3961,80.3982,75.04,85,100,9.6
145,Mount Isa,AU,2022-12-22 22:37:36,-20.7333,139.5,76.77,83,100,3.44
146,Road Town,VG,2022-12-22 22:37:37,18.4167,-64.6167,80.69,83,40,6.91
147,Hami,CN,2022-12-22 22:37:37,42.8,93.45,20.01,46,89,1.59
148,Teguise,ES,2022-12-22 22:37:37,29.0605,-13.564,62.82,82,0,6.91
149,Seoul,KR,2022-12-22 22:36:16,37.5683,126.9778,9.84,58,20,13.8
150,Lilongwe,MW,2022-12-22 22:37:38,-13.9669,33.7873,64.15,96,100,2.75
151,Talnakh,RU,2022-12-22 22:37:38,69.4865,88.3972,-5.8,94,100,17.58
152,Souillac,MU,2022-12-22 22:37:39,-20.5167,57.5167,71.98,83,20,6.91
153,Sabang,ID,2022-12-22 22:37:39,5.8933,95.3214,80.69,79,83,8.14
154,Mahon,ES,2022-12-22 22:37:40,39.8885,4.2658,54.16,100,0,5.75
155,Mahina,PF,2022-12-22 22:35:37,-17.5065,-149.489,87.57,62,75,8.05
156,Emba,KZ,2022-12-22 22:37:40,48.8264,58.1442,13.8,92,27,10.13
157,College,US,2022-12-22 22:37:40,64.8569,-147.8028,-14.42,71,0,0.0
158,Esmeraldas,BR,2022-12-22 22:37:41,-19.7625,-44.3139,76.06,91,6,4.97
159,Henties Bay,NA,2022-12-22 22:37:41,-22.116,14.2845,62.53,93,6,7.54
160,Saldanha,ZA,2022-12-22 22:37:41,-33.0117,17.9442,62.65,89,96,12.24
161,Muzaffarabad,PK,2022-12-22 22:37:42,34.37,73.4711,44.76,26,16,6.4
162,Mamallapuram,IN,2022-12-22 22:37:42,12.6264,80.1722,75.25,83,97,13.15
163,Qaanaaq,GL,2022-12-22 22:37:44,77.484,-69.3632,-19.43,67,0,7.25
164,Cidreira,BR,2022-12-22 22:37:44,-30.1811,-50.2056,70.25,69,0,18.41
165,Torbay,CA,2022-12-22 22:35:41,47.6666,-52.7314,29.75,82,40,12.66
166,Saskylakh,RU,2022-12-22 22:37:44,71.9167,114.0833,-8.68,84,72,14.56
167,Evans,US,2022-12-22 22:33:36,33.5337,-82.1307,46.6,93,100,3.44
168,Samaro,PK,2022-12-22 22:37:45,25.2815,69.3965,57.09,21,0,5.82
169,Viedma,AR,2022-12-22 22:37:45,-40.8135,-62.9967,68.59,80,96,19.08
170,Meulaboh,ID,2022-12-22 22:37:46,4.1363,96.1285,75.61,87,85,2.73
171,Ibipeba,BR,2022-12-22 22:37:46,-11.6408,-42.0111,71.55,86,99,4.25
172,Biak,ID,2022-12-22 22:37:47,-0.9131,122.8766,79.18,75,80,0.78
173,Leh,IN,2022-12-22 22:37:47,34.1667,77.5833,6.8,34,0,1.45
174,Dargaville,NZ,2022-12-22 22:37:47,-35.9333,173.8833,72.61,57,0,9.17
175,Caibarien,CU,2022-12-22 22:36:43,22.5206,-79.4669,85.32,75,1,8.75
176,Itarema,BR,2022-12-22 22:37:48,-2.9248,-39.9167,79.61,77,50,10.94
177,Mujiayingzi,CN,2022-12-22 22:37:48,42.1167,118.7833,0.86,42,1,8.41
178,Touros,BR,2022-12-22 22:37:49,-5.1989,-35.4608,78.78,76,4,9.64
179,Haines Junction,CA,2022-12-22 22:37:49,60.7522,-137.5108,-18.45,69,96,1.14
180,Dhidhdhoo,MV,2022-12-22 22:37:49,6.8833,73.1,80.74,72,50,2.77
181,Gondar,ET,2022-12-22 22:37:50,12.6,37.4667,57.06,54,73,4.45
182,Maxixe,MZ,2022-12-22 22:35:10,-23.8597,35.3472,74.95,55,60,9.28
183,Ancud,CL,2022-12-22 22:38:50,-41.8697,-73.8203,54.88,69,6,11.61
184,Bredasdorp,ZA,2022-12-22 22:38:51,-34.5322,20.0403,65.1,82,87,3.24
185,Tuatapere,NZ,2022-12-22 22:38:51,-46.1333,167.6833,61.47,79,49,7.76
186,Carbonia,IT,2022-12-22 22:38:52,39.1672,8.5222,58.01,94,100,7.29
187,Pisco,PE,2022-12-22 22:38:52,-13.7,-76.2167,73.45,68,37,24.16
188,Lichinga,MZ,2022-12-22 22:38:52,-13.3128,35.2406,62.69,94,75,10.36
189,Cabo San Lucas,MX,2022-12-22 22:38:53,22.8909,-109.9124,78.62,56,0,11.5
190,Fuengirola,ES,2022-12-22 22:38:53,36.54,-4.6247,62.6,63,0,17.27
191,Beloha,MG,2022-12-22 22:38:54,-25.1667,45.05,65.97,83,23,9.4
192,Takoradi,GH,2022-12-22 22:38:54,4.8845,-1.7554,78.78,83,86,6.31
193,Ayia Varvara,CY,2022-12-22 22:38:54,34.9971,33.3683,53.89,76,5,4.03
194,Olga,RU,2022-12-22 22:38:55,43.7444,135.2892,29.8,92,100,29.95
195,Westport,US,2022-12-22 22:38:50,41.1415,-73.3579,46.38,87,100,13.8
196,Borovoy,RU,2022-12-22 22:38:55,55.4333,86.0833,6.08,85,40,4.47
197,Inhambane,MZ,2022-12-22 22:38:56,-23.865,35.3833,75.43,56,61,10.27
198,Hanstholm,DK,2022-12-22 22:34:21,57.1167,8.6167,43.12,85,6,21.39
199,Bathsheba,BB,2022-12-22 22:38:56,13.2167,-59.5167,79.41,69,20,17.27
200,Sal Rei,CV,2022-12-22 22:38:56,16.1833,-22.9167,74.26,67,0,17.49
201,Rawson,AR,2022-12-22 22:38:57,-43.3002,-65.1023,75.6,24,79,28.27
202,Ponta Delgada,PT,2022-12-22 22:38:57,37.7333,-25.6667,62.51,82,20,14.97
203,Taoudenni,ML,2022-12-22 22:38:57,22.6783,-3.9836,64.62,31,0,11.56
204,Warkworth,NZ,2022-12-22 22:38:58,-36.4,174.6667,74.48,57,0,3.98
205,Nouadhibou,MR,2022-12-22 22:38:58,20.931,-17.0347,71.58,40,0,6.91
206,Chernyshevskiy,RU,2022-12-22 22:38:58,63.0128,112.4714,-20.85,95,100,3.83
207,Alamosa,US,2022-12-22 22:35:30,37.4695,-105.87,37.38,22,0,17.27
208,Rusape,ZW,2022-12-22 22:38:59,-18.5278,32.1284,58.35,91,100,8.23
209,Muzhi,RU,2022-12-22 22:38:59,65.3667,64.6667,-1.59,99,99,4.65
210,Paita,PE,2022-12-22 22:39:00,-5.0892,-81.1144,72.18,78,31,17.94
211,El Sauzal,MX,2022-12-22 22:34:06,31.9,-116.6833,63.41,63,73,3.56
212,Grindavik,IS,2022-12-22 22:39:00,63.8424,-22.4338,21.67,68,20,12.66
213,Novorudnyy,RU,2022-12-22 22:39:00,51.5026,58.1873,20.08,84,100,18.52
214,Bethlehem,BR,2022-12-22 22:36:14,-1.4558,-48.5044,75.24,94,100,4.61
215,Hofn,IS,2022-12-22 22:39:01,64.2539,-15.2082,24.87,65,1,17.72
216,Vawkavysk,BY,2022-12-22 22:39:01,53.1561,24.4513,35.06,99,100,13.67
217,Nikolskoye,RU,2022-12-22 22:39:02,59.7035,30.7861,35.8,99,100,8.7
218,Havoysund,NO,2022-12-22 22:39:02,70.9963,24.6622,25.03,84,100,9.37
219,Havre-Saint-Pierre,CA,2022-12-22 22:39:03,50.2334,-63.5986,26.6,79,0,11.5
220,Amapa,BR,2022-12-22 22:39:03,1.0,-52.0,71.69,98,95,4.29
221,Ixtapa,MX,2022-12-22 22:39:03,20.7,-105.2,78.22,78,0,10.36
222,Khorol,UA,2022-12-22 22:39:04,49.7837,33.2783,39.18,96,100,10.83
223,San Cristobal,VE,2022-12-22 22:39:04,7.7669,-72.225,75.38,77,11,2.62
224,Katobu,ID,2022-12-22 22:39:06,-4.9408,122.5276,77.79,90,100,8.12
225,Dunedin,NZ,2022-12-22 22:39:06,-45.8742,170.5036,61.81,80,84,4.0
226,Honiara,SB,2022-12-22 22:34:20,-9.4333,159.95,83.66,77,87,8.39
227,Baykit,RU,2022-12-22 22:39:07,61.67,96.37,-18.71,100,75,2.19
228,Pangkalanbuun,ID,2022-12-22 22:39:07,-2.6833,111.6167,75.0,95,100,3.96
229,Hambantota,LK,2022-12-22 22:39:07,6.1241,81.1185,74.98,88,72,5.14
230,Guozhen,CN,2022-12-22 22:39:08,34.3659,107.359,36.3,45,0,2.26
231,Kangaatsiaq,GL,2022-12-22 22:40:08,68.3065,-53.4641,10.33,87,48,8.12
232,San Patricio,US,2022-12-22 22:40:09,28.017,-97.5169,68.09,57,37,24.32
233,Pierre,US,2022-12-22 22:39:50,44.3683,-100.351,-6.14,79,100,33.38
234,Oyem,GA,2022-12-22 22:40:09,1.5995,11.5793,67.62,96,63,3.06
235,Teguldet,RU,2022-12-22 22:40:11,57.3064,88.1667,2.57,98,100,2.26
236,Geraldton,AU,2022-12-22 22:40:11,-28.7667,114.6,77.41,23,0,10.36
237,Lata,PT,2022-12-22 22:40:12,40.1629,-8.3327,58.08,96,100,4.03
238,Brigantine,US,2022-12-22 22:40:12,39.4101,-74.3646,52.03,95,100,12.66
239,Sabalgarh,IN,2022-12-22 22:40:12,26.25,77.4,53.94,45,0,5.19
240,Gold Coast,AU,2022-12-22 22:40:13,-28.0,153.4333,80.24,60,48,11.5
241,Olafsvik,IS,2022-12-22 22:40:13,64.8945,-23.7142,28.08,63,57,15.32
242,Chapais,CA,2022-12-22 22:40:14,49.7834,-74.8492,4.78,90,100,9.8
243,Sinnamary,GF,2022-12-22 22:40:14,5.3833,-52.95,76.55,81,93,13.15
244,Roma,US,2022-12-22 22:40:15,43.2128,-75.4557,36.73,90,100,13.8
245,Crestview,US,2022-12-22 22:40:15,30.7621,-86.5705,59.25,91,100,6.91
246,Viransehir,TR,2022-12-22 22:40:16,37.2353,39.7631,50.14,54,97,4.21
247,Palauig,PH,2022-12-22 22:40:16,15.435,119.9045,76.21,74,96,3.51
248,Pundaguitan,PH,2022-12-22 22:40:17,6.3711,126.1689,81.61,78,60,3.36
249,Sioux Lookout,CA,2022-12-22 22:40:17,50.1001,-91.917,-7.53,77,100,14.97
250,Sao Jose Da Coroa Grande,BR,2022-12-22 22:40:17,-8.8978,-35.1478,79.56,78,45,12.17
251,Carnarvon,AU,2022-12-22 22:40:18,-24.8667,113.6333,80.74,61,73,8.5
252,Farafangana,MG,2022-12-22 22:40:18,-22.8167,47.8333,70.16,90,90,10.71
253,Pevek,RU,2022-12-22 22:40:18,69.7008,170.3133,-2.54,84,0,3.38
254,Kahului,US,2022-12-22 22:38:27,20.8947,-156.47,80.96,62,20,8.05
255,Fuzhou,CN,2022-12-22 22:40:20,26.0614,119.3061,48.09,74,2,3.15
256,Nushki,PK,2022-12-22 22:40:20,29.5542,66.0215,36.73,50,0,2.04
257,Chara,RU,2022-12-22 22:40:21,56.9064,118.2631,-21.78,72,3,1.19
258,Gamba,GA,2022-12-22 22:40:21,-2.65,10.0,76.5,86,98,4.21
259,Severo-Kurilsk,RU,2022-12-22 22:38:58,50.6789,156.125,31.62,75,31,10.54
260,Mackay,AU,2022-12-22 22:40:22,-21.15,149.2,80.69,63,99,11.9
261,Pitimbu,BR,2022-12-22 22:40:22,-7.4706,-34.8086,81.19,75,70,11.83
262,Dwarka,IN,2022-12-22 22:40:23,22.2394,68.9678,70.09,41,0,12.73
263,Mocuba,MZ,2022-12-22 22:40:23,-16.8392,36.9856,71.06,94,100,6.04
264,Luwuk,ID,2022-12-22 22:40:24,-0.9516,122.7875,80.76,78,80,0.92
265,Lavrentiya,RU,2022-12-22 22:40:24,65.5833,-171.0,16.79,76,2,14.36
266,Lorengau,PG,2022-12-22 22:40:24,-2.0226,147.2712,83.37,79,100,9.73
267,Najran,SA,2022-12-22 22:40:25,17.4924,44.1277,56.05,39,0,1.41
268,Shache,CN,2022-12-22 22:40:25,38.4167,77.2406,22.05,45,70,0.65
269,Almaznyy,RU,2022-12-22 22:40:26,48.0448,40.045,32.81,93,99,6.08
270,Koungheul,SN,2022-12-22 22:40:26,13.9833,-14.8,74.86,16,64,9.51
271,Baft,IR,2022-12-22 22:40:27,29.234,56.6057,34.59,48,0,1.83
272,San Rafael,AR,2022-12-22 22:40:27,-34.6177,-68.3301,91.6,22,21,11.43
273,Batemans Bay,AU,2022-12-22 22:40:27,-35.7167,150.1833,73.26,50,15,4.76
274,Stokmarknes,NO,2022-12-22 22:40:28,68.5646,14.9108,31.96,100,75,3.44
275,Vardo,NO,2022-12-22 22:40:28,70.3705,31.1107,28.38,80,100,24.16
276,Cherskiy,RU,2022-12-22 22:40:28,68.75,161.3,-1.71,74,0,2.13
277,Shanghai,CN,2022-12-22 22:40:47,31.2222,121.4581,31.87,38,0,14.0
278,Tyret Pervaya,RU,2022-12-22 22:41:29,53.6703,102.3106,14.79,81,100,9.15
279,Codrington,AU,2022-12-22 22:41:29,-38.2667,141.9667,66.6,68,16,8.12
280,Hasaki,JP,2022-12-22 22:41:30,35.7333,140.8333,43.2,38,2,38.81
281,Clyde River,CA,2022-12-22 22:41:30,70.4692,-68.5914,-16.37,76,0,4.61
282,Manbij,SY,2022-12-22 22:41:31,36.5281,37.9549,48.54,68,3,6.11
283,Flinders,AU,2022-12-22 22:41:32,-34.5833,150.8552,76.37,71,53,5.99
284,Vanimo,PG,2022-12-22 22:41:32,-2.6741,141.3028,80.89,81,100,5.61
285,Ulaangom,MN,2022-12-22 22:41:33,49.9811,92.0667,-5.98,94,100,2.39
286,Olavarria,AR,2022-12-22 22:41:33,-36.8927,-60.3225,86.02,45,100,11.56
287,Bontang,ID,2022-12-22 22:41:34,0.1333,117.5,77.34,91,100,6.73
288,Buchanan,LR,2022-12-22 22:41:34,5.8808,-10.0467,78.67,81,82,5.32
289,Rock Sound,BS,2022-12-22 22:41:34,24.9,-76.2,77.54,73,3,10.71
290,Marawi,PH,2022-12-22 22:41:35,7.9986,124.2928,71.22,90,50,1.39
291,Bubaque,GW,2022-12-22 22:41:35,11.2833,-15.8333,81.54,59,66,5.53
292,Isangel,VU,2022-12-22 22:37:47,-19.55,169.2667,85.66,67,4,8.21
293,Tchibanga,GA,2022-12-22 22:41:35,-2.85,11.0333,70.79,98,100,1.3
294,Amos,CA,2022-12-22 22:41:36,48.5669,-78.1162,20.17,88,100,9.95
295,Sovetskiy,RU,2022-12-22 22:41:36,61.3614,63.5842,15.24,94,100,9.33
296,Klaksvik,FO,2022-12-22 22:41:37,62.2266,-6.589,31.12,60,100,20.09
297,Pangody,RU,2022-12-22 22:41:37,65.85,74.4859,-4.7,86,35,13.78
298,Jaypur,IN,2022-12-22 22:41:37,18.85,82.5833,58.82,42,80,3.04
299,Saint-Georges,GD,2022-12-22 22:41:38,12.0564,-61.7485,80.28,74,20,13.8
300,Coquimbo,CL,2022-12-22 22:41:38,-29.9533,-71.3436,67.73,77,0,16.11
301,Poya,NC,2022-12-22 22:41:39,-21.35,165.15,83.77,68,9,2.48
302,Abu Zabad,SD,2022-12-22 22:41:39,12.35,29.25,69.46,32,54,12.55
303,Nabire,ID,2022-12-22 22:41:39,-3.3667,135.4833,81.81,76,97,1.41
304,Cockburn Town,TC,2022-12-22 22:41:40,21.4612,-71.1419,78.76,73,40,5.75
305,Houlton,US,2022-12-22 22:41:40,46.1262,-67.8403,18.01,85,0,3.44
306,Bilibino,RU,2022-12-22 22:41:41,68.0546,166.4372,7.25,72,0,4.92
307,Bonavista,CA,2022-12-22 22:41:41,48.6499,-53.1147,30.56,68,77,14.38
308,Mlonggo,ID,2022-12-22 22:41:42,-6.5333,110.7,79.86,82,100,18.01
309,Champerico,GT,2022-12-22 22:41:42,14.3,-91.9167,90.14,72,14,6.89
310,Vestmannaeyjar,IS,2022-12-22 22:41:42,63.4427,-20.2734,29.53,56,71,9.8
311,Riyadh,SA,2022-12-22 22:37:47,24.6877,46.7219,62.74,31,99,13.42
312,Beyneu,KZ,2022-12-22 22:41:19,45.3167,55.2,22.75,65,0,11.34
313,Myanaung,MM,2022-12-22 22:41:43,18.2833,95.3167,68.58,76,98,2.59
314,Ler,SS,2022-12-22 22:41:44,8.3018,30.1418,78.8,32,100,2.24
315,Villazon,BO,2022-12-22 22:41:44,-22.0866,-65.5942,58.75,46,52,17.63
316,Cayenne,GF,2022-12-22 22:40:52,4.9333,-52.3333,78.84,73,0,5.75
317,Berwick,US,2022-12-22 22:41:44,41.0545,-76.2333,42.73,94,100,4.0
318,Upernavik,GL,2022-12-22 22:41:45,72.7868,-56.1549,-0.27,97,24,16.17
319,Ust-Ishim,RU,2022-12-22 22:41:45,57.6935,71.1665,6.48,79,100,13.0
320,Terney,RU,2022-12-22 22:41:45,45.0503,136.6092,28.51,84,100,33.38
321,Lakselv,NO,2022-12-22 22:41:46,70.0513,24.9718,21.02,86,100,6.91
322,Gogrial,SS,2022-12-22 22:41:46,8.5332,28.1004,77.5,28,93,5.03
323,Manadhoo,MV,2022-12-22 22:41:48,5.7667,73.3833,80.44,76,72,4.68
324,Ozinki,RU,2022-12-22 22:41:48,51.1786,49.6769,32.54,86,100,16.55
325,Bosaso,SO,2022-12-22 22:41:48,11.2842,49.1816,74.28,83,35,3.11
326,Khushab,PK,2022-12-22 22:41:49,32.2967,72.3525,51.31,35,0,1.52
327,Vagur,FO,2022-12-22 22:42:49,61.4732,-6.8119,37.63,54,100,17.78
328,Beringovskiy,RU,2022-12-22 22:42:50,63.05,179.3167,28.11,64,4,27.36
329,Suez,EG,2022-12-22 22:42:50,29.9737,32.5263,57.27,78,67,6.91
330,Sarakhs,IR,2022-12-22 22:42:50,36.5449,61.1577,36.79,65,100,4.43
331,Coihaique,CL,2022-12-22 22:42:51,-45.5752,-72.0662,48.81,90,46,9.28
332,Lagos,NG,2022-12-22 22:39:31,6.5833,3.75,80.92,85,78,0.89
333,Kayerkan,RU,2022-12-22 22:42:51,69.3497,87.7602,-6.48,83,100,16.15
334,Staryy Nadym,RU,2022-12-22 22:42:52,65.6118,72.6842,-0.69,96,71,15.57
335,Fulton,US,2022-12-22 22:38:25,33.7668,-84.4499,46.11,88,100,8.05
336,Coahuayana,MX,2022-12-22 22:42:52,18.7333,-103.6833,83.75,47,0,5.01
337,Vao,NC,2022-12-22 22:42:53,-22.6667,167.4833,79.18,75,1,8.21
338,Los Llanos De Aridane,ES,2022-12-22 22:42:53,28.6585,-17.9182,62.35,59,0,10.0
339,Oksfjord,NO,2022-12-22 22:42:53,70.2396,22.3479,26.78,84,65,6.38
340,Ostrovnoy,RU,2022-12-22 22:42:54,68.0531,39.5131,18.25,91,100,6.24
341,Sao Filipe,CV,2022-12-22 22:42:54,14.8961,-24.4956,75.88,60,0,11.92
342,Nizhnevartovsk,RU,2022-12-22 22:42:55,60.9344,76.5531,-4.99,71,0,8.99
343,Rio Grande,BR,2022-12-22 22:42:55,-32.035,-52.0986,77.11,69,21,18.9
344,Waghai,IN,2022-12-22 22:42:55,20.7667,73.4833,65.03,41,0,1.9
345,Saint-Pierre,RE,2022-12-22 22:42:56,-21.3393,55.4781,76.68,65,0,5.75
346,Tenenkou,ML,2022-12-22 22:42:56,14.4572,-4.9169,69.62,19,100,10.31
347,Tombouctou,ML,2022-12-22 22:42:57,20.0,-3.0,64.44,26,88,11.41
348,Vanavara,RU,2022-12-22 22:42:57,60.34,102.2797,15.26,94,100,10.78
349,Vila Franca Do Campo,PT,2022-12-22 22:42:57,37.7167,-25.4333,62.2,76,100,14.45
350,Mahebourg,MU,2022-12-22 22:42:58,-20.4081,57.7,73.26,83,20,6.91
351,Tirumullaivasal,IN,2022-12-22 22:42:58,11.2333,79.8333,73.51,82,99,15.08
352,Labuhan,ID,2022-12-22 22:42:59,-6.8844,112.2051,77.5,85,100,11.86
353,Aykhal,RU,2022-12-22 22:43:00,66.0,111.5,-17.01,89,100,7.65
354,Jacareacanga,BR,2022-12-22 22:43:00,-6.2222,-57.7528,74.84,87,99,3.11
355,Watsa,CD,2022-12-22 22:43:01,3.0372,29.5355,67.14,70,100,2.59
356,Hastings,GB,2022-12-22 22:43:01,50.8552,0.5729,51.98,88,67,15.05
357,Peniche,PT,2022-12-22 22:43:01,39.3558,-9.3811,60.3,94,95,12.24
358,Kieta,PG,2022-12-22 22:43:02,-6.2167,155.6333,80.31,81,100,2.73
359,Loukhi,RU,2022-12-22 22:43:02,66.0764,33.0381,17.92,97,100,4.05
360,Kalmunai,LK,2022-12-22 22:43:03,7.4167,81.8167,73.54,91,59,13.78
361,Siteki,SZ,2022-12-22 22:43:03,-26.45,31.95,62.6,94,0,4.61
362,Saint-Paul,RE,2022-12-22 22:43:03,-21.0096,55.2707,77.11,80,75,13.33
363,Inta,RU,2022-12-22 22:43:04,66.0317,60.1659,-7.85,94,67,6.2
364,Penzance,GB,2022-12-22 22:43:04,50.1186,-5.5371,50.68,95,99,8.23
365,Muroto,JP,2022-12-22 22:43:05,33.2833,134.15,39.94,71,92,27.45
366,Ichchapuram,IN,2022-12-22 22:43:05,19.1167,84.7,64.72,71,95,3.65
367,Kitob,UZ,2022-12-22 22:43:05,39.0843,66.8332,34.56,71,7,4.54
368,Zhezkazgan,KZ,2022-12-22 22:43:06,47.8043,67.7144,2.3,100,99,1.41
369,Besikduzu,TR,2022-12-22 22:43:06,41.052,39.2284,46.29,64,0,5.64
370,Voloshka,RU,2022-12-22 22:43:07,61.3314,40.0858,33.26,96,100,10.22
371,Tilichiki,RU,2022-12-22 22:43:07,60.4667,166.1,-5.01,86,73,11.79
372,Faranah,GN,2022-12-22 22:43:07,10.0404,-10.7434,69.6,24,28,4.83
373,Saint-Leu,RE,2022-12-22 22:43:08,-21.15,55.2833,76.06,76,70,8.81
374,Baoning,CN,2022-12-22 22:44:08,25.3378,110.026,48.06,81,40,2.24
375,Senanga,ZM,2022-12-22 22:44:09,-16.1167,23.2667,66.43,93,100,5.61
376,Naze,JP,2022-12-22 22:44:09,28.3667,129.4833,49.12,76,100,24.4
377,Puerto Escondido,MX,2022-12-22 22:44:10,15.85,-97.0667,82.04,65,0,4.59
378,Mogadishu,SO,2022-12-22 22:44:10,2.0371,45.3438,77.74,83,39,17.72
379,Char Bhadrasan,BD,2022-12-22 22:44:11,23.3167,90.2167,62.2,57,84,5.7
380,Lakewood,US,2022-12-22 22:41:45,39.7047,-105.0814,4.42,58,96,4.0
381,Iisalmi,FI,2022-12-22 22:44:11,63.5592,27.1907,33.04,96,100,6.46
382,Motygino,RU,2022-12-22 22:44:12,58.1831,94.7592,-4.59,100,100,3.38
383,Wilmington,US,2022-12-22 22:40:47,34.2257,-77.9447,56.91,85,97,8.99
384,Abu Samrah,SY,2022-12-22 22:44:12,35.3029,37.1841,49.69,74,6,6.13
385,Omsukchan,RU,2022-12-22 22:44:13,62.5333,155.8,-14.21,63,41,4.81
386,Norman Wells,CA,2022-12-22 22:44:13,65.282,-126.8329,-21.96,69,100,0.0
387,Dosso,NE,2022-12-22 22:44:14,13.049,3.1937,66.29,23,95,9.89
388,Krasnovishersk,RU,2022-12-22 22:44:14,60.4078,57.082,17.82,94,100,8.68
389,Jieshi,CN,2022-12-22 22:44:14,22.8134,115.8257,54.34,54,5,8.72
390,Kotido,UG,2022-12-22 22:44:15,2.9806,34.1331,72.72,44,76,4.16
391,Atar,MR,2022-12-22 22:44:15,20.5169,-13.0499,65.46,22,0,7.36
392,Darab,IR,2022-12-22 22:44:17,28.7519,54.5444,48.79,34,42,2.84
393,Terrak,NO,2022-12-22 22:44:17,65.087,12.3715,31.87,86,89,4.99
394,Bulgan,MN,2022-12-22 22:44:18,48.8125,103.5347,2.62,93,11,4.14
395,Vila Velha,BR,2022-12-22 22:44:18,-20.3297,-40.2925,73.35,92,75,11.5
396,Pacific Grove,US,2022-12-22 22:44:19,36.6177,-121.9166,64.42,73,0,5.01
397,Iralaya,HN,2022-12-22 22:44:19,15.0,-83.2333,77.2,82,56,11.83
398,Toamasina,MG,2022-12-22 22:44:20,-18.1667,49.3833,73.78,95,100,9.62
399,Millinocket,US,2022-12-22 22:44:20,45.6573,-68.7098,19.51,93,0,0.0
400,Trairi,BR,2022-12-22 22:43:23,-3.2778,-39.2689,79.63,76,30,9.06
401,Hithadhoo,MV,2022-12-22 22:44:21,-0.6,73.0833,81.12,71,11,15.1
402,Xining,CN,2022-12-22 22:44:21,36.6167,101.7667,15.57,53,0,2.66
403,Tabora,TZ,2022-12-22 22:44:22,-5.0167,32.8,69.58,83,75,0.0
404,Tiarei,PF,2022-12-22 22:44:22,-17.5333,-149.3333,87.82,81,100,16.49
405,Luderitz,NA,2022-12-22 22:44:23,-26.6481,15.1594,64.45,93,4,12.24
406,El Seibo,DO,2022-12-22 22:44:23,18.7641,-69.0375,80.13,91,7,5.3
407,Boulder,US,2022-12-22 22:44:23,40.0833,-105.3505,1.26,61,0,4.61
408,Atasu,KZ,2022-12-22 22:44:24,48.6814,71.6433,-8.45,100,99,3.29
409,Port Hedland,AU,2022-12-22 22:44:24,-20.3167,118.5667,73.45,88,40,0.0
410,Isilkul,RU,2022-12-22 22:44:25,54.9109,71.2728,-0.45,81,86,12.68
411,Umm Kaddadah,SD,2022-12-22 22:44:25,13.6017,26.6876,68.47,36,99,16.02
412,Fuerte Olimpo,PY,2022-12-22 22:44:26,-21.0415,-57.8738,84.52,40,9,6.35
413,Yeppoon,AU,2022-12-22 22:44:26,-23.1333,150.7333,74.98,58,94,10.58
414,Alibag,IN,2022-12-22 22:44:26,18.6411,72.8792,75.27,61,0,5.17
415,Bansud,PH,2022-12-22 22:45:27,12.865,121.4564,75.38,91,98,15.12
416,Abnub,EG,2022-12-22 22:45:27,27.2696,31.1511,57.42,68,60,9.62
417,Tazovskiy,RU,2022-12-22 22:45:28,67.4667,78.7,-11.51,94,64,9.48
418,Sao Lourenco Do Sul,BR,2022-12-22 22:45:28,-31.3653,-51.9783,69.17,67,52,15.19
419,Guacimo,CR,2022-12-22 22:45:28,10.2104,-83.6807,83.03,95,96,1.21
420,Igra,RU,2022-12-22 22:45:29,57.5558,53.0547,29.77,96,100,10.6
421,Bengkulu,ID,2022-12-22 22:40:49,-3.8004,102.2655,74.77,87,100,3.67
422,Kabompo,ZM,2022-12-22 22:45:29,-13.5927,24.2008,64.09,98,100,5.97
423,Lac Du Bonnet,CA,2022-12-22 22:45:24,50.2536,-96.0612,-4.04,95,100,9.73
424,Terrace,CA,2022-12-22 22:45:26,54.5163,-128.6035,3.11,46,100,27.63
425,Santa Lucia,ES,2022-12-22 22:40:56,27.9117,-15.5407,58.77,63,0,6.91
426,Porto Novo,BJ,2022-12-22 22:45:31,6.4965,2.6036,80.42,79,84,5.01
427,Patea,NZ,2022-12-22 22:45:32,-39.7583,174.4833,70.0,70,11,11.54
428,Mount Pleasant,US,2022-12-22 22:44:13,32.7941,-79.8626,51.01,92,100,6.91
429,Ambulu,ID,2022-12-22 22:45:33,-8.345,113.6058,76.71,91,100,8.01
430,Kafue,ZM,2022-12-22 22:45:33,-15.7691,28.1814,65.19,94,100,7.07
431,Nosivka,UA,2022-12-22 22:45:34,50.9315,31.5828,31.68,90,100,6.76
432,Bela,IN,2022-12-22 22:45:34,25.9333,81.9833,57.22,35,0,4.18
433,George Town,MY,2022-12-22 22:44:19,5.4112,100.3354,78.89,92,20,5.75
434,Sorland,NO,2022-12-22 22:45:34,67.667,12.6934,35.46,82,97,36.06
435,Kang,BW,2022-12-22 22:45:35,-23.6752,22.7876,73.67,48,20,7.31
436,Ust-Kut,RU,2022-12-22 22:45:35,56.7938,105.7672,21.61,94,100,7.65
437,Parchim,DE,2022-12-22 22:45:36,53.4263,11.8488,40.71,97,98,6.51
438,Leshukonskoye,RU,2022-12-22 22:45:36,64.8989,45.7622,20.19,97,100,1.86
439,Jalu,LY,2022-12-22 22:45:36,29.0331,21.5482,58.28,52,100,6.46
440,Killybegs,IE,2022-12-22 22:45:37,54.6333,-8.45,41.59,91,47,5.59
441,Rentina,GR,2022-12-22 22:45:37,40.6574,23.614,46.9,62,86,2.68
442,Huayucachi,PE,2022-12-22 22:45:38,-12.1333,-75.2333,60.42,64,68,6.58
443,Doha,QA,2022-12-22 22:43:21,25.2867,51.5333,69.78,75,0,3.44
444,Los Cordobas,CO,2022-12-22 22:45:38,8.894,-76.3546,80.33,82,14,7.47
445,Dudinka,RU,2022-12-22 22:45:38,69.4058,86.1778,-5.39,95,100,25.48
446,Awbari,LY,2022-12-22 22:45:39,26.5921,12.7805,51.84,49,0,3.71
447,Kununurra,AU,2022-12-22 22:43:59,-15.7667,128.7333,78.78,89,100,6.91
448,Goderich,CA,2022-12-22 22:45:18,43.7501,-81.7165,38.91,87,100,13.8
449,Honningsvag,NO,2022-12-22 22:45:40,70.9821,25.9704,24.55,93,100,9.22
450,Batagay,RU,2022-12-22 22:45:40,67.6333,134.6333,-26.97,100,67,0.76
451,Palmer,US,2022-12-22 22:44:20,42.1584,-72.3287,39.24,79,100,4.61
452,Elko,US,2022-12-22 22:45:40,41.0002,-115.5012,36.05,72,100,1.99
453,Booue,GA,2022-12-22 22:45:41,-0.0921,11.9385,72.27,97,96,0.56
454,Samana,DO,2022-12-22 22:45:41,19.2056,-69.3369,80.56,85,8,7.63
455,Landau,DE,2022-12-22 22:45:42,49.2075,8.1133,50.65,91,100,9.91
456,Margate,GB,2022-12-22 22:45:42,51.3813,1.3862,50.9,91,68,3.0
457,Nakusp,CA,2022-12-22 22:43:13,50.2499,-117.8023,1.74,71,50,2.3
458,San Luis,AR,2022-12-22 22:41:29,-33.295,-66.3356,89.49,26,8,9.69
459,Manica,FR,2022-12-22 22:45:43,49.0,-1.1667,53.37,96,100,10.54
460,Saint-Francois,FR,2022-12-22 22:45:43,46.4154,3.9054,56.64,82,100,8.05
461,Severo-Yeniseyskiy,RU,2022-12-22 22:45:43,60.3725,93.0408,-10.28,94,95,8.57
462,Sistranda,NO,2022-12-22 22:45:44,63.7256,8.834,26.56,56,86,7.29
463,Kotelnikovo,RU,2022-12-22 22:46:44,47.6317,43.1461,31.59,74,39,7.72
464,Sawtell,AU,2022-12-22 22:46:44,-30.3833,153.1,71.62,73,100,16.11
465,Raudeberg,NO,2022-12-22 22:46:45,61.9875,5.1352,34.47,51,85,18.03
466,Mahenge,TZ,2022-12-22 22:46:45,-8.6833,36.7167,63.43,99,100,0.6
467,Alofi,NU,2022-12-22 22:46:46,-19.0595,-169.9187,84.09,74,75,12.66
468,Chavakkad,IN,2022-12-22 22:46:46,10.5333,76.05,72.12,63,85,6.8
469,Kapuskasing,CA,2022-12-22 22:46:46,49.4169,-82.4331,17.69,86,75,12.66
470,Pokrovka,KG,2022-12-22 22:46:48,42.3414,78.0056,18.82,86,100,7.65
471,Fortuna Foothills,US,2022-12-22 22:46:48,32.6578,-114.4119,69.85,21,0,9.22
472,Nageshwari,BD,2022-12-22 22:46:49,25.9377,89.7148,61.56,52,1,0.92
473,Bairiki,KI,2022-12-22 22:46:49,1.3292,172.9752,86.0,70,75,13.8
474,Wanning,CN,2022-12-22 22:46:49,18.8003,110.3967,62.11,74,96,7.4
475,Noumea,NC,2022-12-22 22:43:55,-22.2763,166.4572,87.78,99,2,4.68
476,Ahipara,NZ,2022-12-22 22:46:50,-35.1667,173.1667,70.81,61,5,8.34
477,Nsanje,MW,2022-12-22 22:46:50,-16.92,35.262,69.91,96,100,4.52
478,Yichun,CN,2022-12-22 22:46:51,47.7,128.9,-4.31,98,100,3.33
479,Kulob,TJ,2022-12-22 22:46:51,37.9145,69.783,41.76,93,40,4.47
480,Aksu,CN,2022-12-22 22:46:51,41.1231,80.2644,19.15,55,1,1.52
481,Bucak,TR,2022-12-22 22:46:52,37.4592,30.595,30.72,70,0,2.42
482,Kenora,CA,2022-12-22 22:46:52,49.8167,-94.4337,-8.23,77,40,9.22
483,Thai Binh,VN,2022-12-22 22:46:53,20.45,106.3333,64.63,55,81,6.06
484,Kassala,SD,2022-12-22 22:46:53,15.451,36.4,75.83,25,4,10.49
485,Zhob,PK,2022-12-22 22:46:54,31.3411,69.4481,42.71,33,0,2.04
486,Olinda,BR,2022-12-22 22:52:30,-8.0089,-34.8553,82.13,69,20,9.22
487,Elsmere,US,2022-12-22 22:47:40,39.0126,-84.6047,45.07,95,100,11.5
488,Acapulco,MX,2022-12-22 22:52:48,16.8634,-99.8901,81.64,65,0,7.45
489,Nkhata Bay,MW,2022-12-22 22:53:31,-11.6066,34.2907,70.61,93,100,4.36
490,Linfen,CN,2022-12-22 22:53:31,36.0889,111.5189,30.18,38,32,1.34
491,Khalkhal,IR,2022-12-22 22:53:32,37.6189,48.5258,29.66,90,40,1.39
492,Mount Gambier,AU,2022-12-22 22:53:32,-37.8333,140.7667,66.69,68,55,5.3
493,Shellbrook,CA,2022-12-22 22:53:33,53.2168,-106.4011,-11.97,93,81,8.34
494,Fairlie,GB,2022-12-22 22:53:33,55.756,-4.8556,42.71,91,100,1.01
495,Macae,BR,2022-12-22 22:49:31,-22.3708,-41.7869,74.95,83,100,6.91
496,Nsoko,SZ,2022-12-22 22:53:34,-27.0333,31.95,63.66,81,0,4.07
497,Urucui,BR,2022-12-22 22:53:34,-7.2294,-44.5561,74.64,92,100,5.08
498,Izhevskoye,RU,2022-12-22 22:53:34,54.5567,40.8703,32.81,99,100,6.8
499,Belmonte,BR,2022-12-22 22:53:36,-15.8631,-38.8828,75.51,92,100,4.47
500,Monrovia,LR,2022-12-22 22:53:36,6.3005,-10.7969,76.77,75,78,4.92
501,San Policarpo,PH,2022-12-22 22:53:37,12.1791,125.5072,79.12,86,100,3.67
502,Richards Bay,ZA,2022-12-22 22:53:37,-28.783,32.0377,67.91,72,0,14.41
503,Iquique,CL,2022-12-22 22:53:37,-20.2208,-70.1431,71.64,79,7,7.61
504,Panacan,PH,2022-12-22 22:53:38,9.2463,118.4082,78.24,87,37,7.47
505,Gornopravdinsk,RU,2022-12-22 22:53:38,60.05,69.9,11.71,80,100,13.78
506,Thinadhoo,MV,2022-12-22 22:53:39,0.5333,72.9333,80.89,73,16,10.92
507,Pizhma,RU,2022-12-22 22:53:39,57.8642,47.1171,33.06,91,100,10.04
508,Birin,NP,2022-12-22 22:53:39,26.8865,88.0718,44.44,79,2,4.38
509,Vavuniya,LK,2022-12-22 22:53:40,8.7514,80.4971,68.49,98,91,1.97
510,Acajutla,SV,2022-12-22 22:53:40,13.5928,-89.8275,80.91,63,46,3.8
511,Deputatskiy,RU,2022-12-22 22:53:41,69.3,139.9,-15.41,99,26,0.34
512,Kushima,JP,2022-12-22 22:53:42,31.4583,131.2333,38.03,80,46,16.93
513,Moron,AR,2022-12-22 22:50:07,-34.6534,-58.6198,84.06,67,87,13.38
514,Lumsden,CA,2022-12-22 22:53:43,50.6501,-104.8678,-8.99,91,100,14.32
515,Conde,BR,2022-12-22 22:53:43,-7.2597,-34.9075,80.06,78,20,6.91
516,Joao Pinheiro,BR,2022-12-22 22:53:43,-17.7425,-46.1725,70.27,81,13,5.95
517,Neryungri,RU,2022-12-22 22:51:32,56.6709,124.6491,-33.21,100,47,0.76
518,Casper,US,2022-12-22 22:53:34,42.8666,-106.3131,-9.27,58,28,8.01
